[
  {"name": "Paris", "country": "France", "lat": 48.8566, "lon": 2.3522, "capital": true},
  {"name": "London", "country": "UK", "lat": 51.5074, "lon": -0.1278, "capital": true},
  {"name": "Berlin", "country": "Germany", "lat": 52.5200, "lon": 13.4050, "capital": true},
  {"name": "Madrid", "country": "Spain", "lat": 40.4168, "lon": -3.7038, "capital": true},
  {"name": "Rome", "country": "Italy", "lat": 41.9028, "lon": 12.4964, "capital": true},
  {"name": "Amsterdam", "country": "Netherlands", "lat": 52.3676, "lon": 4.9041, "capital": true},
  {"name": "Brussels", "country": "Belgium", "lat": 50.8503, "lon": 4.3517, "capital": true},
  {"name": "Vienna", "country": "Austria", "lat": 48.2082, "lon": 16.3738, "capital": true},
  {"name": "Prague", "country": "Czech Republic", "lat": 50.0755, "lon": 14.4378, "capital": true},
  {"name": "Warsaw", "country": "Poland", "lat": 52.2297, "lon": 21.0122, "capital": true},
  {"name": "Budapest", "country": "Hungary", "lat": 47.4979, "lon": 19.0402, "capital": true},
  {"name": "Athens", "country": "Greece", "lat": 37.9838, "lon": 23.7275, "capital": true},
  {"name": "Lisbon", "country": "Portugal", "lat": 38.7223, "lon": -9.1393, "capital": true},
  {"name": "Stockholm", "country": "Sweden", "lat": 59.3293, "lon": 18.0686, "capital": true},
  {"name": "Oslo", "country": "Norway", "lat": 59.9139, "lon": 10.7522, "capital": true},
  {"name": "Copenhagen", "country": "Denmark", "lat": 55.6761, "lon": 12.5683, "capital": true},
  {"name": "Helsinki", "country": "Finland", "lat": 60.1699, "lon": 24.9384, "capital": true},
  {"name": "Dublin", "country": "Ireland", "lat": 53.3498, "lon": -6.2603, "capital": true},
  {"name": "Bern", "country": "Switzerland", "lat": 46.9480, "lon": 7.4474, "capital": true},
  {"name": "Zurich", "country": "Switzerland", "lat": 47.3769, "lon": 8.5417, "capital": false},
  {"name": "Geneva", "country": "Switzerland", "lat": 46.2044, "lon": 6.1432, "capital": false},
  {"name": "Luxembourg", "country": "Luxembourg", "lat": 49.6117, "lon": 6.1319, "capital": true},
  {"name": "Valletta", "country": "Malta", "lat": 35.8997, "lon": 14.5147, "capital": true},
  {"name": "Nicosia", "country": "Cyprus", "lat": 35.1856, "lon": 33.3823, "capital": true},
  {"name": "Riga", "country": "Latvia", "lat": 56.9496, "lon": 24.1052, "capital": true},
  {"name": "Vilnius", "country": "Lithuania", "lat": 54.6872, "lon": 25.2797, "capital": true},
  {"name": "Tallinn", "country": "Estonia", "lat": 59.4370, "lon": 24.7536, "capital": true},
  {"name": "Minsk", "country": "Belarus", "lat": 53.9045, "lon": 27.5615, "capital": true},
  {"name": "Kyiv", "country": "Ukraine", "lat": 50.4501, "lon": 30.5234, "capital": true},
  {"name": "Bucharest", "country": "Romania", "lat": 44.4268, "lon": 26.1025, "capital": true},
  {"name": "Sofia", "country": "Bulgaria", "lat": 42.6977, "lon": 23.3219, "capital": true},
  {"name": "Belgrade", "country": "Serbia", "lat": 44.7866, "lon": 20.4489, "capital": true},
  {"name": "Zagreb", "country": "Croatia", "lat": 45.8150, "lon": 15.9819, "capital": true},
  {"name": "Sarajevo", "country": "Bosnia", "lat": 43.8563, "lon": 18.4131, "capital": true},
  {"name": "Ljubljana", "country": "Slovenia", "lat": 46.0569, "lon": 14.5058, "capital": true},
  {"name": "Bratislava", "country": "Slovakia", "lat": 48.1486, "lon": 17.1077, "capital": true},
  {"name": "Skopje", "country": "Macedonia", "lat": 41.9973, "lon": 21.4280, "capital": true},
  {"name": "Tirana", "country": "Albania", "lat": 41.3275, "lon": 19.8187, "capital": true},
  {"name": "Podgorica", "country": "Montenegro", "lat": 42.4304, "lon": 19.2594, "capital": true},
  {"name": "Moscow", "country": "Russia", "lat": 55.7558, "lon": 37.6173, "capital": true},
  {"name": "Reykjavik", "country": "Iceland", "lat": 64.1355, "lon": -21.8954, "capital": true},
  {"name": "Barcelona", "country": "Spain", "lat": 41.3851, "lon": 2.1734, "capital": false},
  {"name": "Milan", "country": "Italy", "lat": 45.4654, "lon": 9.1859, "capital": false},
  {"name": "Naples", "country": "Italy", "lat": 40.8518, "lon": 14.2681, "capital": false},
  {"name": "Turin", "country": "Italy", "lat": 45.0703, "lon": 7.6869, "capital": false},
  {"name": "Florence", "country": "Italy", "lat": 43.7696, "lon": 11.2558, "capital": false},
  {"name": "Venice", "country": "Italy", "lat": 45.4408, "lon": 12.3155, "capital": false},
  {"name": "Lyon", "country": "France", "lat": 45.7640, "lon": 4.8357, "capital": false},
  {"name": "Marseille", "country": "France", "lat": 43.2965, "lon": 5.3698, "capital": false},
  {"name": "Bordeaux", "country": "France", "lat": 44.8378, "lon": -0.5792, "capital": false},
  {"name": "Toulouse", "country": "France", "lat": 43.6047, "lon": 1.4442, "capital": false},
  {"name": "Nice", "country": "France", "lat": 43.7102, "lon": 7.2620, "capital": false},
  {"name": "Nantes", "country": "France", "lat": 47.2184, "lon": -1.5536, "capital": false},
  {"name": "Strasbourg", "country": "France", "lat": 48.5734, "lon": 7.7521, "capital": false},
  {"name": "Lille", "country": "France", "lat": 50.6292, "lon": 3.0573, "capital": false},
  {"name": "Montpellier", "country": "France", "lat": 43.6108, "lon": 3.8767, "capital": false},
  {"name": "Rennes", "country": "France", "lat": 48.1173, "lon": -1.6778, "capital": false},
  {"name": "Grenoble", "country": "France", "lat": 45.1885, "lon": 5.7245, "capital": false},
  {"name": "Saint-Etienne", "country": "France", "lat": 45.4397, "lon": 4.3872, "capital": false},
  {"name": "Dijon", "country": "France", "lat": 47.3220, "lon": 5.0415, "capital": false},
  {"name": "Angers", "country": "France", "lat": 47.4784, "lon": -0.5632, "capital": false},
  {"name": "Reims", "country": "France", "lat": 49.2583, "lon": 4.0317, "capital": false},
  {"name": "Munich", "country": "Germany", "lat": 48.1351, "lon": 11.5820, "capital": false},
  {"name": "Hamburg", "country": "Germany", "lat": 53.5753, "lon": 10.0153, "capital": false},
  {"name": "Frankfurt", "country": "Germany", "lat": 50.1109, "lon": 8.6821, "capital": false},
  {"name": "Cologne", "country": "Germany", "lat": 50.9333, "lon": 6.9500, "capital": false},
  {"name": "Dusseldorf", "country": "Germany", "lat": 51.2217, "lon": 6.7762, "capital": false},
  {"name": "Stuttgart", "country": "Germany", "lat": 48.7758, "lon": 9.1829, "capital": false},
  {"name": "Dresden", "country": "Germany", "lat": 51.0504, "lon": 13.7373, "capital": false},
  {"name": "Leipzig", "country": "Germany", "lat": 51.3397, "lon": 12.3731, "capital": false},
  {"name": "Rotterdam", "country": "Netherlands", "lat": 51.9244, "lon": 4.4777, "capital": false},
  {"name": "Antwerp", "country": "Belgium", "lat": 51.2213, "lon": 4.4051, "capital": false},
  {"name": "Bruges", "country": "Belgium", "lat": 51.2093, "lon": 3.2247, "capital": false},
  {"name": "Porto", "country": "Portugal", "lat": 41.1579, "lon": -8.6291, "capital": false},
  {"name": "Seville", "country": "Spain", "lat": 37.3891, "lon": -5.9845, "capital": false},
  {"name": "Valencia", "country": "Spain", "lat": 39.4699, "lon": -0.3763, "capital": false},
  {"name": "Bilbao", "country": "Spain", "lat": 43.2627, "lon": -2.9253, "capital": false},
  {"name": "Zaragoza", "country": "Spain", "lat": 41.6488, "lon": -0.8891, "capital": false},
  {"name": "Saint-Petersburg", "country": "Russia", "lat": 59.9343, "lon": 30.3351, "capital": false},
  {"name": "Gothenburg", "country": "Sweden", "lat": 57.7089, "lon": 11.9746, "capital": false},
  {"name": "Malmö", "country": "Sweden", "lat": 55.6050, "lon": 13.0038, "capital": false},
  {"name": "Krakow", "country": "Poland", "lat": 50.0647, "lon": 19.9450, "capital": false},
  {"name": "Wroclaw", "country": "Poland", "lat": 51.1079, "lon": 17.0385, "capital": false},
  {"name": "Gdansk", "country": "Poland", "lat": 54.3520, "lon": 18.6466, "capital": false},
  {"name": "Poznan", "country": "Poland", "lat": 52.4064, "lon": 16.9252, "capital": false},
  {"name": "Lodz", "country": "Poland", "lat": 51.7592, "lon": 19.4560, "capital": false},
  {"name": "Odesa", "country": "Ukraine", "lat": 46.4825, "lon": 30.7233, "capital": false},
  {"name": "Lviv", "country": "Ukraine", "lat": 49.8397, "lon": 24.0297, "capital": false},
  {"name": "Kharkiv", "country": "Ukraine", "lat": 49.9935, "lon": 36.2304, "capital": false},
  {"name": "Cluj-Napoca", "country": "Romania", "lat": 46.7712, "lon": 23.6236, "capital": false},
  {"name": "Thessaloniki", "country": "Greece", "lat": 40.6401, "lon": 22.9444, "capital": false},
  {"name": "Palermo", "country": "Italy", "lat": 38.1157, "lon": 13.3615, "capital": false},
  {"name": "Bologna", "country": "Italy", "lat": 44.4949, "lon": 11.3426, "capital": false},
  {"name": "Basel", "country": "Switzerland", "lat": 47.5596, "lon": 7.5886, "capital": false},
  {"name": "Innsbruck", "country": "Austria", "lat": 47.2692, "lon": 11.4041, "capital": false},
  {"name": "Salzburg", "country": "Austria", "lat": 47.8095, "lon": 13.0550, "capital": false},
  {"name": "Ghent", "country": "Belgium", "lat": 51.0543, "lon": 3.7174, "capital": false},
  {"name": "Liege", "country": "Belgium", "lat": 50.6326, "lon": 5.5797, "capital": false},
  {"name": "Metz", "country": "France", "lat": 49.1193, "lon": 6.1757, "capital": false},
  {"name": "Brest", "country": "France", "lat": 48.3904, "lon": -4.4861, "capital": false},
  {"name": "Tours", "country": "France", "lat": 47.3941, "lon": 0.6848, "capital": false},
  {"name": "Caen", "country": "France", "lat": 49.1829, "lon": -0.3707, "capital": false},
  {"name": "Clermont-Ferrand", "country": "France", "lat": 45.7772, "lon": 3.0870, "capital": false},
  {"name": "Washington", "country": "USA", "lat": 38.9072, "lon": -77.0369, "capital": true},
  {"name": "New York", "country": "USA", "lat": 40.7128, "lon": -74.0060, "capital": false},
  {"name": "Los Angeles", "country": "USA", "lat": 34.0522, "lon": -118.2437, "capital": false},
  {"name": "Chicago", "country": "USA", "lat": 41.8781, "lon": -87.6298, "capital": false},
  {"name": "Houston", "country": "USA", "lat": 29.7604, "lon": -95.3698, "capital": false},
  {"name": "Phoenix", "country": "USA", "lat": 33.4484, "lon": -112.0740, "capital": false},
  {"name": "Philadelphia", "country": "USA", "lat": 39.9526, "lon": -75.1652, "capital": false},
  {"name": "San Antonio", "country": "USA", "lat": 29.4241, "lon": -98.4936, "capital": false},
  {"name": "San Diego", "country": "USA", "lat": 32.7157, "lon": -117.1611, "capital": false},
  {"name": "Dallas", "country": "USA", "lat": 32.7767, "lon": -96.7970, "capital": false},
  {"name": "San Francisco", "country": "USA", "lat": 37.7749, "lon": -122.4194, "capital": false},
  {"name": "Seattle", "country": "USA", "lat": 47.6062, "lon": -122.3321, "capital": false},
  {"name": "Miami", "country": "USA", "lat": 25.7617, "lon": -80.1918, "capital": false},
  {"name": "Boston", "country": "USA", "lat": 42.3601, "lon": -71.0589, "capital": false},
  {"name": "Las Vegas", "country": "USA", "lat": 36.1699, "lon": -115.1398, "capital": false},
  {"name": "New Orleans", "country": "USA", "lat": 29.9511, "lon": -90.0715, "capital": false},
  {"name": "Atlanta", "country": "USA", "lat": 33.7490, "lon": -84.3880, "capital": false},
  {"name": "Denver", "country": "USA", "lat": 39.7392, "lon": -104.9903, "capital": false},
  {"name": "Portland", "country": "USA", "lat": 45.5051, "lon": -122.6750, "capital": false},
  {"name": "Nashville", "country": "USA", "lat": 36.1627, "lon": -86.7816, "capital": false},
  {"name": "Austin", "country": "USA", "lat": 30.2672, "lon": -97.7431, "capital": false},
  {"name": "Minneapolis", "country": "USA", "lat": 44.9778, "lon": -93.2650, "capital": false},
  {"name": "Detroit", "country": "USA", "lat": 42.3314, "lon": -83.0458, "capital": false},
  {"name": "Baltimore", "country": "USA", "lat": 39.2904, "lon": -76.6122, "capital": false},
  {"name": "San Jose", "country": "USA", "lat": 37.3382, "lon": -121.8863, "capital": false},
  {"name": "Ottawa", "country": "Canada", "lat": 45.4215, "lon": -75.6972, "capital": true},
  {"name": "Toronto", "country": "Canada", "lat": 43.6532, "lon": -79.3832, "capital": false},
  {"name": "Montreal", "country": "Canada", "lat": 45.5017, "lon": -73.5673, "capital": false},
  {"name": "Vancouver", "country": "Canada", "lat": 49.2827, "lon": -123.1207, "capital": false},
  {"name": "Calgary", "country": "Canada", "lat": 51.0447, "lon": -114.0719, "capital": false},
  {"name": "Edmonton", "country": "Canada", "lat": 53.5461, "lon": -113.4938, "capital": false},
  {"name": "Quebec", "country": "Canada", "lat": 46.8139, "lon": -71.2080, "capital": false},
  {"name": "Mexico City", "country": "Mexico", "lat": 19.4326, "lon": -99.1332, "capital": true},
  {"name": "Guadalajara", "country": "Mexico", "lat": 20.6597, "lon": -103.3496, "capital": false},
  {"name": "Monterrey", "country": "Mexico", "lat": 25.6866, "lon": -100.3161, "capital": false},
  {"name": "Cancun", "country": "Mexico", "lat": 21.1619, "lon": -86.8515, "capital": false},
  {"name": "Buenos Aires", "country": "Argentina", "lat": -34.6037, "lon": -58.3816, "capital": true},
  {"name": "Cordoba", "country": "Argentina", "lat": -31.4201, "lon": -64.1888, "capital": false},
  {"name": "Rosario", "country": "Argentina", "lat": -32.9468, "lon": -60.3930, "capital": false},
  {"name": "Mendoza", "country": "Argentina", "lat": -32.8895, "lon": -68.8458, "capital": false},
  {"name": "São Paulo", "country": "Brazil", "lat": -23.5505, "lon": -46.6333, "capital": false},
  {"name": "Rio de Janeiro", "country": "Brazil", "lat": -22.9068, "lon": -43.1729, "capital": false},
  {"name": "Brasilia", "country": "Brazil", "lat": -15.7942, "lon": -47.8825, "capital": true},
  {"name": "Salvador", "country": "Brazil", "lat": -12.9716, "lon": -38.5016, "capital": false},
  {"name": "Manaus", "country": "Brazil", "lat": -3.1190, "lon": -60.0217, "capital": false},
  {"name": "Belem", "country": "Brazil", "lat": -1.4558, "lon": -48.4902, "capital": false},
  {"name": "Fortaleza", "country": "Brazil", "lat": -3.7172, "lon": -38.5433, "capital": false},
  {"name": "Curitiba", "country": "Brazil", "lat": -25.4278, "lon": -49.2731, "capital": false},
  {"name": "Porto Alegre", "country": "Brazil", "lat": -30.0346, "lon": -51.2177, "capital": false},
  {"name": "Lima", "country": "Peru", "lat": -12.0464, "lon": -77.0428, "capital": true},
  {"name": "Bogota", "country": "Colombia", "lat": 4.7110, "lon": -74.0721, "capital": true},
  {"name": "Medellin", "country": "Colombia", "lat": 6.2518, "lon": -75.5636, "capital": false},
  {"name": "Cali", "country": "Colombia", "lat": 3.4516, "lon": -76.5320, "capital": false},
  {"name": "Santiago", "country": "Chile", "lat": -33.4489, "lon": -70.6693, "capital": true},
  {"name": "Valparaiso", "country": "Chile", "lat": -33.0472, "lon": -71.6127, "capital": false},
  {"name": "Caracas", "country": "Venezuela", "lat": 10.4806, "lon": -66.9036, "capital": true},
  {"name": "Quito", "country": "Ecuador", "lat": -0.1807, "lon": -78.4678, "capital": true},
  {"name": "Guayaquil", "country": "Ecuador", "lat": -2.1894, "lon": -79.8891, "capital": false},
  {"name": "La Paz", "country": "Bolivia", "lat": -16.5000, "lon": -68.1500, "capital": true},
  {"name": "Montevideo", "country": "Uruguay", "lat": -34.9011, "lon": -56.1645, "capital": true},
  {"name": "Asuncion", "country": "Paraguay", "lat": -25.2867, "lon": -57.6470, "capital": true},
  {"name": "Havana", "country": "Cuba", "lat": 23.1136, "lon": -82.3666, "capital": true},
  {"name": "Kingston", "country": "Jamaica", "lat": 17.9970, "lon": -76.7936, "capital": true},
  {"name": "Port-au-Prince", "country": "Haiti", "lat": 18.5944, "lon": -72.3074, "capital": true},
  {"name": "Panama City", "country": "Panama", "lat": 8.9936, "lon": -79.5197, "capital": true},
  {"name": "San Jose", "country": "Costa Rica", "lat": 9.9281, "lon": -84.0907, "capital": true},
  {"name": "Managua", "country": "Nicaragua", "lat": 12.1364, "lon": -86.2514, "capital": true},
  {"name": "Tegucigalpa", "country": "Honduras", "lat": 14.0723, "lon": -87.2024, "capital": true},
  {"name": "San Salvador", "country": "El Salvador", "lat": 13.6929, "lon": -89.2182, "capital": true},
  {"name": "Guatemala City", "country": "Guatemala", "lat": 14.6349, "lon": -90.5069, "capital": true},
  {"name": "Nassau", "country": "Bahamas", "lat": 25.0480, "lon": -77.3554, "capital": true},
  {"name": "Port of Spain", "country": "Trinidad", "lat": 10.6549, "lon": -61.5019, "capital": true},
  {"name": "Bridgetown", "country": "Barbados", "lat": 13.0975, "lon": -59.6167, "capital": true},
  {"name": "Georgetown", "country": "Guyana", "lat": 6.8013, "lon": -58.1551, "capital": true},
  {"name": "Paramaribo", "country": "Suriname", "lat": 5.8520, "lon": -55.2038, "capital": true},
  {"name": "Tokyo", "country": "Japan", "lat": 35.6762, "lon": 139.6503, "capital": true},
  {"name": "Osaka", "country": "Japan", "lat": 34.6937, "lon": 135.5023, "capital": false},
  {"name": "Kyoto", "country": "Japan", "lat": 35.0116, "lon": 135.7681, "capital": false},
  {"name": "Hiroshima", "country": "Japan", "lat": 34.3853, "lon": 132.4553, "capital": false},
  {"name": "Sapporo", "country": "Japan", "lat": 43.0642, "lon": 141.3469, "capital": false},
  {"name": "Beijing", "country": "China", "lat": 39.9042, "lon": 116.4074, "capital": true},
  {"name": "Shanghai", "country": "China", "lat": 31.2304, "lon": 121.4737, "capital": false},
  {"name": "Guangzhou", "country": "China", "lat": 23.1291, "lon": 113.2644, "capital": false},
  {"name": "Shenzhen", "country": "China", "lat": 22.5431, "lon": 114.0579, "capital": false},
  {"name": "Chengdu", "country": "China", "lat": 30.5728, "lon": 104.0668, "capital": false},
  {"name": "Chongqing", "country": "China", "lat": 29.4316, "lon": 106.9123, "capital": false},
  {"name": "Wuhan", "country": "China", "lat": 30.5928, "lon": 114.3055, "capital": false},
  {"name": "Xian", "country": "China", "lat": 34.3416, "lon": 108.9398, "capital": false},
  {"name": "Hangzhou", "country": "China", "lat": 30.2741, "lon": 120.1551, "capital": false},
  {"name": "Nanjing", "country": "China", "lat": 32.0603, "lon": 118.7969, "capital": false},
  {"name": "Tianjin", "country": "China", "lat": 39.3434, "lon": 117.3616, "capital": false},
  {"name": "Seoul", "country": "South Korea", "lat": 37.5665, "lon": 126.9780, "capital": true},
  {"name": "Busan", "country": "South Korea", "lat": 35.1796, "lon": 129.0756, "capital": false},
  {"name": "Incheon", "country": "South Korea", "lat": 37.4563, "lon": 126.7052, "capital": false},
  {"name": "Mumbai", "country": "India", "lat": 19.0760, "lon": 72.8777, "capital": false},
  {"name": "New Delhi", "country": "India", "lat": 28.6139, "lon": 77.2090, "capital": true},
  {"name": "Bangalore", "country": "India", "lat": 12.9716, "lon": 77.5946, "capital": false},
  {"name": "Hyderabad", "country": "India", "lat": 17.3850, "lon": 78.4867, "capital": false},
  {"name": "Ahmedabad", "country": "India", "lat": 23.0225, "lon": 72.5714, "capital": false},
  {"name": "Chennai", "country": "India", "lat": 13.0827, "lon": 80.2707, "capital": false},
  {"name": "Kolkata", "country": "India", "lat": 22.5726, "lon": 88.3639, "capital": false},
  {"name": "Pune", "country": "India", "lat": 18.5204, "lon": 73.8567, "capital": false},
  {"name": "Jaipur", "country": "India", "lat": 26.9124, "lon": 75.7873, "capital": false},
  {"name": "Bangkok", "country": "Thailand", "lat": 13.7563, "lon": 100.5018, "capital": true},
  {"name": "Chiang Mai", "country": "Thailand", "lat": 18.7883, "lon": 98.9853, "capital": false},
  {"name": "Ho Chi Minh City", "country": "Vietnam", "lat": 10.8231, "lon": 106.6297, "capital": false},
  {"name": "Hanoi", "country": "Vietnam", "lat": 21.0278, "lon": 105.8342, "capital": true},
  {"name": "Da Nang", "country": "Vietnam", "lat": 16.0544, "lon": 108.2022, "capital": false},
  {"name": "Jakarta", "country": "Indonesia", "lat": -6.2088, "lon": 106.8456, "capital": true},
  {"name": "Bali", "country": "Indonesia", "lat": -8.3405, "lon": 115.0920, "capital": false},
  {"name": "Surabaya", "country": "Indonesia", "lat": -7.2575, "lon": 112.7521, "capital": false},
  {"name": "Kuala Lumpur", "country": "Malaysia", "lat": 3.1390, "lon": 101.6869, "capital": true},
  {"name": "Penang", "country": "Malaysia", "lat": 5.4141, "lon": 100.3288, "capital": false},
  {"name": "Singapore", "country": "Singapore", "lat": 1.3521, "lon": 103.8198, "capital": true},
  {"name": "Manila", "country": "Philippines", "lat": 14.5995, "lon": 120.9842, "capital": true},
  {"name": "Cebu", "country": "Philippines", "lat": 10.3157, "lon": 123.8854, "capital": false},
  {"name": "Dhaka", "country": "Bangladesh", "lat": 23.8103, "lon": 90.4125, "capital": true},
  {"name": "Karachi", "country": "Pakistan", "lat": 24.8607, "lon": 67.0011, "capital": false},
  {"name": "Lahore", "country": "Pakistan", "lat": 31.5204, "lon": 74.3587, "capital": false},
  {"name": "Islamabad", "country": "Pakistan", "lat": 33.6844, "lon": 73.0479, "capital": true},
  {"name": "Kathmandu", "country": "Nepal", "lat": 27.7172, "lon": 85.3240, "capital": true},
  {"name": "Colombo", "country": "Sri Lanka", "lat": 6.9271, "lon": 79.8612, "capital": true},
  {"name": "Yangon", "country": "Myanmar", "lat": 16.8661, "lon": 96.1951, "capital": false},
  {"name": "Naypyidaw", "country": "Myanmar", "lat": 19.7633, "lon": 96.0785, "capital": true},
  {"name": "Phnom Penh", "country": "Cambodia", "lat": 11.5564, "lon": 104.9282, "capital": true},
  {"name": "Vientiane", "country": "Laos", "lat": 17.9757, "lon": 102.6331, "capital": true},
  {"name": "Taipei", "country": "Taiwan", "lat": 25.0330, "lon": 121.5654, "capital": true},
  {"name": "Hong Kong", "country": "China", "lat": 22.3193, "lon": 114.1694, "capital": false},
  {"name": "Macau", "country": "China", "lat": 22.1987, "lon": 113.5439, "capital": false},
  {"name": "Ulaanbaatar", "country": "Mongolia", "lat": 47.8864, "lon": 106.9057, "capital": true},
  {"name": "Tashkent", "country": "Uzbekistan", "lat": 41.2995, "lon": 69.2401, "capital": true},
  {"name": "Almaty", "country": "Kazakhstan", "lat": 43.2220, "lon": 76.8512, "capital": false},
  {"name": "Astana", "country": "Kazakhstan", "lat": 51.1811, "lon": 71.4460, "capital": true},
  {"name": "Bishkek", "country": "Kyrgyzstan", "lat": 42.8746, "lon": 74.5698, "capital": true},
  {"name": "Dushanbe", "country": "Tajikistan", "lat": 38.5598, "lon": 68.7738, "capital": true},
  {"name": "Ashgabat", "country": "Turkmenistan", "lat": 37.9601, "lon": 58.3261, "capital": true},
  {"name": "Baku", "country": "Azerbaijan", "lat": 40.4093, "lon": 49.8671, "capital": true},
  {"name": "Yerevan", "country": "Armenia", "lat": 40.1872, "lon": 44.5152, "capital": true},
  {"name": "Tbilisi", "country": "Georgia", "lat": 41.6938, "lon": 44.8015, "capital": true},
  {"name": "Ankara", "country": "Turkey", "lat": 39.9334, "lon": 32.8597, "capital": true},
  {"name": "Istanbul", "country": "Turkey", "lat": 41.0082, "lon": 28.9784, "capital": false},
  {"name": "Izmir", "country": "Turkey", "lat": 38.4192, "lon": 27.1287, "capital": false},
  {"name": "Tehran", "country": "Iran", "lat": 35.6892, "lon": 51.3890, "capital": true},
  {"name": "Baghdad", "country": "Iraq", "lat": 33.3152, "lon": 44.3661, "capital": true},
  {"name": "Riyadh", "country": "Saudi Arabia", "lat": 24.6877, "lon": 46.7219, "capital": true},
  {"name": "Jeddah", "country": "Saudi Arabia", "lat": 21.3891, "lon": 39.8579, "capital": false},
  {"name": "Mecca", "country": "Saudi Arabia", "lat": 21.3891, "lon": 39.8579, "capital": false},
  {"name": "Dubai", "country": "UAE", "lat": 25.2048, "lon": 55.2708, "capital": false},
  {"name": "Abu Dhabi", "country": "UAE", "lat": 24.4539, "lon": 54.3773, "capital": true},
  {"name": "Muscat", "country": "Oman", "lat": 23.5880, "lon": 58.3829, "capital": true},
  {"name": "Doha", "country": "Qatar", "lat": 25.2854, "lon": 51.5310, "capital": true},
  {"name": "Kuwait City", "country": "Kuwait", "lat": 29.3759, "lon": 47.9774, "capital": true},
  {"name": "Manama", "country": "Bahrain", "lat": 26.2235, "lon": 50.5876, "capital": true},
  {"name": "Amman", "country": "Jordan", "lat": 31.9539, "lon": 35.9106, "capital": true},
  {"name": "Beirut", "country": "Lebanon", "lat": 33.8938, "lon": 35.5018, "capital": true},
  {"name": "Damascus", "country": "Syria", "lat": 33.5102, "lon": 36.2913, "capital": true},
  {"name": "Tel Aviv", "country": "Israel", "lat": 32.0853, "lon": 34.7818, "capital": false},
  {"name": "Jerusalem", "country": "Israel", "lat": 31.7683, "lon": 35.2137, "capital": true},
  {"name": "Kabul", "country": "Afghanistan", "lat": 34.5553, "lon": 69.2075, "capital": true},
  {"name": "Thimphu", "country": "Bhutan", "lat": 27.4728, "lon": 89.6393, "capital": true},
  {"name": "Male", "country": "Maldives", "lat": 4.1755, "lon": 73.5093, "capital": true},
  {"name": "Pyongyang", "country": "North Korea", "lat": 39.0392, "lon": 125.7625, "capital": true},
  {"name": "Cairo", "country": "Egypt", "lat": 30.0444, "lon": 31.2357, "capital": true},
  {"name": "Lagos", "country": "Nigeria", "lat": 6.5244, "lon": 3.3792, "capital": false},
  {"name": "Abuja", "country": "Nigeria", "lat": 9.0765, "lon": 7.3986, "capital": true},
  {"name": "Kinshasa", "country": "DRC", "lat": -4.3217, "lon": 15.3222, "capital": true},
  {"name": "Luanda", "country": "Angola", "lat": -8.8400, "lon": 13.2894, "capital": true},
  {"name": "Nairobi", "country": "Kenya", "lat": -1.2921, "lon": 36.8219, "capital": true},
  {"name": "Dar es Salaam", "country": "Tanzania", "lat": -6.7924, "lon": 39.2083, "capital": false},
  {"name": "Dodoma", "country": "Tanzania", "lat": -6.1630, "lon": 35.7516, "capital": true},
  {"name": "Khartoum", "country": "Sudan", "lat": 15.5007, "lon": 32.5599, "capital": true},
  {"name": "Addis Ababa", "country": "Ethiopia", "lat": 9.0320, "lon": 38.7469, "capital": true},
  {"name": "Accra", "country": "Ghana", "lat": 5.6037, "lon": -0.1870, "capital": true},
  {"name": "Abidjan", "country": "Ivory Coast", "lat": 5.3600, "lon": -4.0083, "capital": false},
  {"name": "Yamoussoukro", "country": "Ivory Coast", "lat": 6.8277, "lon": -5.2893, "capital": true},
  {"name": "Casablanca", "country": "Morocco", "lat": 33.5731, "lon": -7.5898, "capital": false},
  {"name": "Rabat", "country": "Morocco", "lat": 34.0209, "lon": -6.8417, "capital": true},
  {"name": "Marrakech", "country": "Morocco", "lat": 31.6295, "lon": -7.9811, "capital": false},
  {"name": "Fes", "country": "Morocco", "lat": 34.0181, "lon": -5.0078, "capital": false},
  {"name": "Algiers", "country": "Algeria", "lat": 36.7372, "lon": 3.0865, "capital": true},
  {"name": "Tunis", "country": "Tunisia", "lat": 36.8190, "lon": 10.1658, "capital": true},
  {"name": "Tripoli", "country": "Libya", "lat": 32.9030, "lon": 13.1803, "capital": true},
  {"name": "Dakar", "country": "Senegal", "lat": 14.6928, "lon": -17.4467, "capital": true},
  {"name": "Bamako", "country": "Mali", "lat": 12.6392, "lon": -8.0029, "capital": true},
  {"name": "Ouagadougou", "country": "Burkina Faso", "lat": 12.3572, "lon": -1.5353, "capital": true},
  {"name": "Niamey", "country": "Niger", "lat": 13.5137, "lon": 2.1098, "capital": true},
  {"name": "Ndjamena", "country": "Chad", "lat": 12.1348, "lon": 15.0557, "capital": true},
  {"name": "Kigali", "country": "Rwanda", "lat": -1.9441, "lon": 30.0619, "capital": true},
  {"name": "Kampala", "country": "Uganda", "lat": 0.3476, "lon": 32.5825, "capital": true},
  {"name": "Lusaka", "country": "Zambia", "lat": -15.3875, "lon": 28.3228, "capital": true},
  {"name": "Harare", "country": "Zimbabwe", "lat": -17.8292, "lon": 31.0522, "capital": true},
  {"name": "Maputo", "country": "Mozambique", "lat": -25.9692, "lon": 32.5732, "capital": true},
  {"name": "Antananarivo", "country": "Madagascar", "lat": -18.9137, "lon": 47.5361, "capital": true},
  {"name": "Cape Town", "country": "South Africa", "lat": -33.9249, "lon": 18.4241, "capital": false},
  {"name": "Johannesburg", "country": "South Africa", "lat": -26.2041, "lon": 28.0473, "capital": false},
  {"name": "Pretoria", "country": "South Africa", "lat": -25.7479, "lon": 28.2293, "capital": true},
  {"name": "Durban", "country": "South Africa", "lat": -29.8587, "lon": 31.0218, "capital": false},
  {"name": "Windhoek", "country": "Namibia", "lat": -22.5597, "lon": 17.0832, "capital": true},
  {"name": "Gaborone", "country": "Botswana", "lat": -24.6282, "lon": 25.9231, "capital": true},
  {"name": "Lilongwe", "country": "Malawi", "lat": -13.9626, "lon": 33.7741, "capital": true},
  {"name": "Asmara", "country": "Eritrea", "lat": 15.3388, "lon": 38.9314, "capital": true},
  {"name": "Djibouti", "country": "Djibouti", "lat": 11.5721, "lon": 43.1456, "capital": true},
  {"name": "Mogadishu", "country": "Somalia", "lat": 2.0469, "lon": 45.3182, "capital": true},
  {"name": "Juba", "country": "South Sudan", "lat": 4.8517, "lon": 31.5825, "capital": true},
  {"name": "Bangui", "country": "CAR", "lat": 4.3612, "lon": 18.5550, "capital": true},
  {"name": "Libreville", "country": "Gabon", "lat": 0.4162, "lon": 9.4673, "capital": true},
  {"name": "Yaounde", "country": "Cameroon", "lat": 3.8480, "lon": 11.5021, "capital": true},
  {"name": "Brazzaville", "country": "Congo", "lat": -4.2634, "lon": 15.2429, "capital": true},
  {"name": "Bujumbura", "country": "Burundi", "lat": -3.3854, "lon": 29.3615, "capital": true},
  {"name": "Port Louis", "country": "Mauritius", "lat": -20.1609, "lon": 57.4989, "capital": true},
  {"name": "Victoria", "country": "Seychelles", "lat": -4.6191, "lon": 55.4513, "capital": true},
  {"name": "Conakry", "country": "Guinea", "lat": 9.6412, "lon": -13.5784, "capital": true},
  {"name": "Bissau", "country": "Guinea-Bissau", "lat": 11.8636, "lon": -15.5977, "capital": true},
  {"name": "Freetown", "country": "Sierra Leone", "lat": 8.4697, "lon": -13.2317, "capital": true},
  {"name": "Monrovia", "country": "Liberia", "lat": 6.3004, "lon": -10.7969, "capital": true},
  {"name": "Lome", "country": "Togo", "lat": 6.1375, "lon": 1.2123, "capital": true},
  {"name": "Cotonou", "country": "Benin", "lat": 6.3676, "lon": 2.4288, "capital": false},
  {"name": "Porto-Novo", "country": "Benin", "lat": 6.3673, "lon": 2.4218, "capital": true},
  {"name": "Malabo", "country": "Equatorial Guinea", "lat": 3.7523, "lon": 8.7741, "capital": true},
  {"name": "Sao Tome", "country": "Sao Tome", "lat": 0.3365, "lon": 6.7273, "capital": true},
  {"name": "Canberra", "country": "Australia", "lat": -35.2809, "lon": 149.1300, "capital": true},
  {"name": "Sydney", "country": "Australia", "lat": -33.8688, "lon": 151.2093, "capital": false},
  {"name": "Melbourne", "country": "Australia", "lat": -37.8136, "lon": 144.9631, "capital": false},
  {"name": "Brisbane", "country": "Australia", "lat": -27.4698, "lon": 153.0251, "capital": false},
  {"name": "Perth", "country": "Australia", "lat": -31.9505, "lon": 115.8605, "capital": false},
  {"name": "Adelaide", "country": "Australia", "lat": -34.9285, "lon": 138.6007, "capital": false},
  {"name": "Darwin", "country": "Australia", "lat": -12.4634, "lon": 130.8456, "capital": false},
  {"name": "Hobart", "country": "Australia", "lat": -42.8821, "lon": 147.3272, "capital": false},
  {"name": "Auckland", "country": "New Zealand", "lat": -36.8509, "lon": 174.7645, "capital": false},
  {"name": "Wellington", "country": "New Zealand", "lat": -41.2865, "lon": 174.7762, "capital": true},
  {"name": "Suva", "country": "Fiji", "lat": -18.1416, "lon": 178.4419, "capital": true},
  {"name": "Port Moresby", "country": "Papua New Guinea", "lat": -9.4438, "lon": 147.1803, "capital": true},
  {"name": "Honiara", "country": "Solomon Islands", "lat": -9.4456, "lon": 160.0000, "capital": true},
  {"name": "Port Vila", "country": "Vanuatu", "lat": -17.7333, "lon": 168.3167, "capital": true},
  {"name": "Nuku'alofa", "country": "Tonga", "lat": -21.1333, "lon": 175.2000, "capital": true},
  {"name": "Apia", "country": "Samoa", "lat": -13.8506, "lon": 171.7514, "capital": true}
]
